[{"name": "Northern Peninsula Airport", "code": "ABM", "lat": -10.942619, "lon": 142.45033}, {"name": "Albury Airport", "code": "ABX", "lat": -36.069626, "lon": 146.95453}, {"name": "Adelaide Airport", "code": "ADL", "lat": -34.938175, "lon": 138.53735}, {"name": "Albany Airport", "code": "ALH", "lat": -34.944996, "lon": 117.804}, {"name": "Armidale Airport", "code": "ARM", "lat": -30.532297, "lon": 151.61493}, {"name": "Alice Springs Airport", "code": "ASP", "lat": -23.80139, "lon": 133.90338}, {"name": "Avalon Airport", "code": "AVV", "lat": -38.02637, "lon": 144.47308}, {"name": "Alexandria", "code": "AXL", "lat": -19.083332, "lon": 136.66667}, {"name": "Connellan Airport", "code": "AYQ", "lat": -25.190878, "lon": 130.97658}, {"name": "Barcaldine Airport", "code": "BCI", "lat": -23.559168, "lon": 145.30194}, {"name": "Bundaberg Airport", "code": "BDB", "lat": -24.898708, "lon": 152.32187}, {"name": "Broken Hill Airport", "code": "BHQ", "lat": -31.998983, "lon": 141.46857}, {"name": "Raglan Airport", "code": "BHS", "lat": -33.41387, "lon": 149.65518}, {"name": "Blackall Airport", "code": "BKQ", "lat": -24.434168, "lon": 145.42833}, {"name": "Broome Airport", "code": "BME", "lat": -17.95264, "lon": 122.23429}, {"name": "Brisbane Airport", "code": "BNE", "lat": -27.40303, "lon": 153.10905}, {"name": "Ballina Byron Airport", "code": "BNK", "lat": -28.837606, "lon": 153.5564}, {"name": "Bussellton", "code": "BQB", "lat": -33.688046, "lon": 115.39455}, {"name": "Burnie Wynyard Airport", "code": "BWT", "lat": -40.993145, "lon": 145.72507}, {"name": "Cobar", "code": "CAZ", "lat": -31.535, "lon": 145.79333}, {"name": "Canberra Airport", "code": "CBR", "lat": -35.30735, "lon": 149.19052}, {"name": "Ceduna Airport", "code": "CED", "lat": -32.12378, "lon": 133.70122}, {"name": "Coffs Harbour Airport", "code": "CFS", "lat": -30.322863, "lon": 153.1153}, {"name": "Cloncurry Airport", "code": "CNJ", "lat": -20.668905, "lon": 140.50851}, {"name": "Cairns Airport", "code": "CNS", "lat": -16.876537, "lon": 145.75404}, {"name": "Coober Pedy Airport", "code": "CPD", "lat": -29.044443, "lon": 134.75278}, {"name": "Charleville Airport", "code": "CTL", "lat": -26.413334, "lon": 146.25842}, {"name": "Cooktown Airport", "code": "CTN", "lat": -15.443333, "lon": 145.18333}, {"name": "Carnarvon Airport", "code": "CVQ", "lat": -24.883429, "lon": 113.66358}, {"name": "Dubbo City Regional Airport", "code": "DBO", "lat": -32.218822, "lon": 148.56956}, {"name": "Doomadgee Airport", "code": "DMD", "lat": -17.939201, "lon": 138.8216}, {"name": "Devonport Airport", "code": "DPO", "lat": -41.172054, "lon": 146.42754}, {"name": "Darwin International Airport", "code": "DRW", "lat": -12.407805, "lon": 130.87752}, {"name": "Elcho Island Airport", "code": "ELC", "lat": -12.019817, "lon": 135.5698}, {"name": "Emerald Airport", "code": "EMD", "lat": -23.56861, "lon": 148.1744}, {"name": "Esperance Airport", "code": "EPR", "lat": -33.68248, "lon": 121.83039}, {"name": "Flinders Island Airport", "code": "FLS", "lat": -40.095, "lon": 147.99667}, {"name": "Geraldton Airport", "code": "GET", "lat": -28.796078, "lon": 114.70205}, {"name": "Griffith Airport", "code": "GFF", "lat": -34.255432, "lon": 146.0627}, {"name": "Grafton Airport", "code": "GFN", "lat": -29.759521, "lon": 153.02834}, {"name": "Gladstone Airport", "code": "GLT", "lat": -23.87147, "lon": 151.22351}, {"name": "Nhulunbuy Airport", "code": "GOV", "lat": -12.269595, "lon": 136.82265}, {"name": "Alyangula Airport", "code": "GTE", "lat": -13.973887, "lon": 136.46002}, {"name": "Hobart International Airport", "code": "HBA", "lat": -42.837257, "lon": 147.50519}, {"name": "Horn Island Airport", "code": "HID", "lat": -10.583333, "lon": 142.28334}, {"name": "Hayman Island", "code": "HIS", "lat": -20.066668, "lon": 148.86667}, {"name": "Hamilton Island Airport", "code": "HTI", "lat": -20.35175, "lon": 148.94847}, {"name": "Hervey Bay Airport", "code": "HVB", "lat": -25.319868, "lon": 152.88521}, {"name": "Mount Isa Airport", "code": "ISA", "lat": -20.667637, "lon": 139.49179}, {"name": "Kingscote Airport", "code": "KGC", "lat": -35.709305, "lon": 137.52332}, {"name": "Kalgoorlie Airport", "code": "KGI", "lat": -30.785246, "lon": 121.45792}, {"name": "King Island Airport", "code": "KNS", "lat": -39.879776, "lon": 143.88168}, {"name": "Kununurra Airport", "code": "KNX", "lat": -15.784031, "lon": 128.71268}, {"name": "Karumba Airport", "code": "KRB", "lat": -17.456667, "lon": 140.83194}, {"name": "Karratha Airport", "code": "KTA", "lat": -20.70826, "lon": 116.77006}, {"name": "Lord Howe Island Airport", "code": "LDH", "lat": -31.540808, "lon": 159.07816}, {"name": "Learmonth Airport", "code": "LEA", "lat": -22.239883, "lon": 114.09427}, {"name": "Longreach Airport", "code": "LRE", "lat": -23.439474, "lon": 144.27147}, {"name": "Launceston Airport", "code": "LST", "lat": -41.54351, "lon": 147.20532}, {"name": "Lismore Airport", "code": "LSY", "lat": -28.836653, "lon": 153.26337}, {"name": "Mcarthur River Airport", "code": "MCV", "lat": -16.466667, "lon": 136.095}, {"name": "Sunshine Coast Airport", "code": "MCY", "lat": -26.60538, "lon": 153.08821}, {"name": "Essendon Airport", "code": "MEB", "lat": -37.736668, "lon": 144.8975}, {"name": "Tullamarine Airport", "code": "MEL", "lat": -37.669613, "lon": 144.84978}, {"name": "Mount Gambier Airport", "code": "MGB", "lat": -37.744072, "lon": 140.78271}, {"name": "Merimbula Airport", "code": "MIM", "lat": -36.910046, "lon": 149.90202}, {"name": "Mackay Airport", "code": "MKY", "lat": -21.176285, "lon": 149.1818}, {"name": "Maningrida Airport", "code": "MNG", "lat": -12.05492, "lon": 134.23227}, {"name": "Moranbah Airport", "code": "MOV", "lat": -22.06057, "lon": 148.07442}, {"name": "Mildura Airport", "code": "MQL", "lat": -34.230835, "lon": 142.08455}, {"name": "Moree Airport", "code": "MRZ", "lat": -29.496346, "lon": 149.85019}, {"name": "Moruya Airport", "code": "MYA", "lat": -35.90251, "lon": 150.14717}, {"name": "Narrabri", "code": "NAA", "lat": -30.31829, "lon": 149.82912}, {"name": "Nifty Airport", "code": "NIF", "lat": -21.675, "lon": 121.58611}, {"name": "Narrandera", "code": "NRA", "lat": -34.705643, "lon": 146.5117}, {"name": "Newcastle Airport", "code": "NTL", "lat": -32.804592, "lon": 151.84006}, {"name": "Normanton Airport", "code": "NTN", "lat": -17.685398, "lon": 141.07307}, {"name": "Orange Airport", "code": "OAG", "lat": -33.3816, "lon": 149.12447}, {"name": "Olympic Dam Airport", "code": "OLP", "lat": -30.483898, "lon": 136.88411}, {"name": "Mornington Airport", "code": "ONG", "lat": -16.662558, "lon": 139.17004}, {"name": "Onslow Airport", "code": "ONS", "lat": -21.666668, "lon": 115.1}, {"name": "Gold Coast Airport", "code": "OOL", "lat": -28.166164, "lon": 153.51314}, {"name": "Snowy Mountains Airport", "code": "OOM", "lat": -36.308334, "lon": 148.97333}, {"name": "Paraburdoo Airport", "code": "PBO", "lat": -23.173908, "lon": 117.748}, {"name": "Perth Airport", "code": "PER", "lat": -31.933603, "lon": 115.960236}, {"name": "Port Hedland International Airport", "code": "PHE", "lat": -20.377945, "lon": 118.63164}, {"name": "Parkes Airport", "code": "PKE", "lat": -33.138454, "lon": 148.2329}, {"name": "Port Lincoln Airport", "code": "PLO", "lat": -34.603333, "lon": 135.87454}, {"name": "Palm Island Airport", "code": "PMK", "lat": -18.333332, "lon": 146.66667}, {"name": "Whitsunday Coast Airport", "code": "PPP", "lat": -20.488922, "lon": 148.55194}, {"name": "Port Macquarie Airport", "code": "PQQ", "lat": -31.431402, "lon": 152.86723}, {"name": "Roma Airport", "code": "RMA", "lat": -26.543552, "lon": 148.77943}, {"name": "Rockhampton Airport", "code": "ROK", "lat": -23.377993, "lon": 150.47841}, {"name": "Sydney (Kingsford Smith) Airport", "code": "SYD", "lat": -33.932922, "lon": 151.1799}, {"name": "Telfer Airport", "code": "TEF", "lat": -21.713057, "lon": 122.21222}, {"name": "Tamworth Airport", "code": "TMW", "lat": -31.0845, "lon": 150.8485}, {"name": "Taree Airport", "code": "TRO", "lat": -31.890272, "lon": 152.50896}, {"name": "Townsville Airport", "code": "TSV", "lat": -19.256506, "lon": 146.7708}, {"name": "Weipa Airport", "code": "WEI", "lat": -12.681317, "lon": 141.9247}, {"name": "Wagga Wagga Airport", "code": "WGA", "lat": -35.15992, "lon": 147.46626}, {"name": "Winton Airport", "code": "WIN", "lat": -22.35, "lon": 143.06667}, {"name": "Toowoomba Wellcamp Airport", "code": "WTB", "lat": -27.56364, "lon": 151.7965}, {"name": "Whyalla Airport", "code": "WYA", "lat": -33.05241, "lon": 137.52197}, {"name": "Alice Springs Railway", "code": "XHW", "lat": -23.70021, "lon": 133.88062}, {"name": "Adelaide Keswick Railway", "code": "XHX", "lat": -34.92862, "lon": 138.59996}, {"name": "Darwin Railway", "code": "XJG", "lat": -12.46282, "lon": 130.84177}, {"name": "Newman Airport", "code": "ZNE", "lat": -23.416517, "lon": 119.80137}]